City_ID,City,Lat,Lng,Max Temp,Humidity,Cloudiness,Wind Speed,Country,Date
0,mazatlan,23.2167,-106.4167,30.51,82,100,1.34,MX,1697850435
1,thompson,55.7435,-97.8558,7.09,100,100,2.57,CA,1697850503
2,san antonio de pale,-1.4014,5.6325,25.81,83,99,4.05,GQ,1697850503
3,grytviken,-54.2811,-36.5092,2.22,95,100,1.52,GS,1697850503
4,happy valley-goose bay,53.3168,-60.3315,7.92,93,100,0.41,CA,1697850503
5,waitangi,-43.9535,-176.5597,10.38,71,100,3.46,NZ,1697850260
6,olyokminsk,60.3736,120.4264,3.27,95,100,6.19,RU,1697850503
7,ancud,-41.8697,-73.8203,8.05,81,59,2.62,CL,1697850503
8,port-aux-francais,-49.35,70.2167,0.82,86,96,9.18,TF,1697850503
9,pancas,-19.225,-40.8514,21.68,83,100,1.56,BR,1697850504
10,nar'yan-mar,67.6713,53.087,0.97,83,99,10.02,RU,1697850504
11,aasiaat,68.7098,-52.8699,-9.47,86,45,0.94,GL,1697850504
12,bhimunipatnam,17.8833,83.4333,26.73,82,91,3.79,IN,1697850504
13,saint-pierre,-21.3393,55.4781,22.82,68,0,3.09,RE,1697850504
14,colonia,50.9333,6.95,13.92,92,75,1.54,DE,1697850504
15,bredasdorp,-34.5322,20.0403,15.29,94,100,9.09,ZA,1697850396
16,blackmans bay,-43.0167,147.3167,13.18,94,100,6.02,AU,1697850505
17,ushuaia,-54.8,-68.3,5.81,77,75,8.05,AR,1697850505
18,prado,-17.3411,-39.2208,23.61,77,100,3.5,BR,1697850505
19,vilyuchinsk,52.9306,158.4028,6.15,97,100,1.32,RU,1697850505
20,papatowai,-46.5619,169.4708,13.02,49,8,7.22,NZ,1697850505
21,wamba,8.9333,8.6,24.02,83,100,1.86,NG,1697850505
22,laguna,38.421,-121.4238,30.24,41,0,3.09,US,1697850506
23,lae,-6.7221,146.9847,28.59,76,90,1.99,PG,1697850506
24,afaahiti,-17.75,-149.2833,23.92,81,6,3.98,PF,1697850506
25,polyarnyy,69.1989,33.4478,2.94,85,100,11.55,RU,1697850506
26,kalmunai,7.4167,81.8167,24.59,88,98,2.31,LK,1697850506
27,kill devil hills,36.0307,-75.676,19.01,72,75,4.63,US,1697850507
28,bethel,41.3712,-73.414,16.17,90,100,1.54,US,1697850507
29,edinburgh of the seven seas,-37.0676,-12.3116,14.63,91,91,9.19,SH,1697850507
30,keflavik,64.0049,-22.5624,7.24,87,75,6.69,IS,1697850507
31,anadyr,64.75,177.4833,-1.72,68,0,5.0,RU,1697850508
32,olonkinbyen,70.9221,-8.7187,3.2,90,6,4.46,SJ,1697850508
33,queenstown,-31.8976,26.8753,17.43,81,97,2.64,ZA,1697850426
34,malango,-2.9627,119.9001,27.33,52,96,1.56,ID,1697850508
35,ribeira grande,38.5167,-28.7,17.65,84,100,9.39,PT,1697850509
36,saint-joseph,-21.3667,55.6167,22.21,80,24,2.69,RE,1697850509
37,acarau,-2.8856,-40.12,26.41,83,6,8.69,BR,1697850509
38,extrema,-22.8547,-46.3183,16.53,95,83,1.79,BR,1697850509
39,utrik,11.2278,169.8474,28.14,75,88,5.2,MH,1697850509
40,adamstown,-25.066,-130.1015,22.87,82,100,3.46,PN,1697850509
41,hawaiian paradise park,19.5933,-154.9731,28.35,77,20,4.12,US,1697850509
42,san luis de la loma,17.2706,-100.8939,26.49,86,97,1.59,MX,1697850510
43,chonchi,-42.6128,-73.8092,8.95,87,87,1.91,CL,1697850510
44,oriximina,-1.7656,-55.8661,29.4,58,75,1.55,BR,1697850510
45,klaksvik,62.2266,-6.589,6.51,63,54,8.91,FO,1697850510
46,key west,24.5557,-81.7826,26.0,76,0,3.09,US,1697850447
47,banda aceh,5.5577,95.3222,26.99,75,100,1.61,ID,1697850510
48,jamestown,42.097,-79.2353,11.12,98,100,1.54,US,1697850510
49,tiksi,71.6872,128.8694,-20.27,99,96,2.41,RU,1697850466
50,kailua-kona,19.6406,-155.9956,29.98,72,40,5.14,US,1697850286
51,dalandzadgad,43.5708,104.425,8.54,27,0,1.63,MN,1697850511
52,whitehorse,60.7161,-135.0538,-4.55,55,100,2.68,CA,1697850511
53,albany,42.6001,-73.9662,15.15,92,98,0.89,US,1697850500
54,santa cruz,-17.8,-63.1667,27.7,69,8,2.57,BO,1697850508
55,longyearbyen,78.2186,15.6401,-5.09,63,40,4.12,SJ,1697850512
56,archangelos,36.2149,28.1149,18.99,64,100,0.84,GR,1697850512
57,port mathurin,-19.6833,63.4167,24.08,85,77,4.28,MU,1697850512
58,malvan,16.0667,73.4667,26.64,73,9,2.28,IN,1697850512
59,shahrud,36.4182,54.9763,10.75,56,0,1.81,IR,1697850513
60,qaqortoq,60.7167,-46.0333,0.15,65,100,1.2,GL,1697850513
61,puerto natales,-51.7236,-72.4875,4.37,80,33,4.72,CL,1697850513
62,pitimbu,-7.4706,-34.8086,26.33,80,85,5.84,BR,1697850373
63,ilulissat,69.2167,-51.1,2.01,51,9,9.26,GL,1697850470
64,hadibu,12.65,54.0333,26.88,79,100,3.76,YE,1697850513
65,badger,64.8,-147.5333,-3.69,75,75,6.69,US,1697850514
66,georgetown,5.4112,100.3354,27.75,83,20,0.0,MY,1697850468
67,nyandoma,61.669,40.1991,-4.02,95,8,2.12,RU,1697850514
68,nang rong,14.6377,102.7914,24.39,85,50,5.0,TH,1697850514
69,nouadhibou,20.931,-17.0347,22.99,94,75,3.6,MR,1697850514
70,cootamundra,-34.65,148.0333,28.86,19,100,8.64,AU,1697850514
71,namibe,-15.1961,12.1522,18.8,86,84,3.77,AO,1697850515
72,lebu,-37.6167,-73.65,10.52,85,94,8.38,CL,1697850515
73,isafjordur,66.0755,-23.124,7.76,90,100,3.19,IS,1697850515
74,saipan,15.1355,145.701,31.39,74,20,5.66,MP,1697850515
75,tual,-5.6667,132.75,26.82,81,46,5.37,ID,1697850515
76,mejit,10.2753,170.8646,27.97,80,100,4.74,MH,1697850515
77,pajok,3.8651,32.4821,19.23,98,88,0.73,SS,1697850515
78,avarua,-21.2078,-159.775,24.03,60,8,7.72,CK,1697850516
79,sitka,57.0531,-135.33,10.94,76,75,3.6,US,1697850516
80,margaret river,-33.95,115.0667,20.83,50,100,4.07,AU,1697850516
81,ulanhot,46.0833,122.0833,5.43,31,12,2.93,CN,1697850516
82,kristiansund,63.1115,7.732,3.36,41,0,5.66,NO,1697850516
83,jinzhou,41.1078,121.1417,10.72,26,0,1.82,CN,1697850516
84,bilibino,68.0546,166.4372,-16.05,84,23,1.03,RU,1697850517
85,buala,-8.145,159.5921,28.5,75,80,0.24,SB,1697850517
86,al kharijah,25.4514,30.5464,20.9,37,0,4.05,EG,1697850517
87,yulinshi,38.2906,109.7494,10.54,44,0,0.94,CN,1697850517
88,ha'il,27.5219,41.6907,21.01,35,0,1.03,SA,1697850518
89,bikenibeu village,1.3673,173.1241,29.98,79,40,3.09,KI,1697850518
90,dongola,19.1667,30.4833,24.41,19,1,4.67,SD,1697850518
91,fisterra,42.9049,-9.2629,13.19,61,37,7.47,ES,1697850518
92,hassi messaoud,31.6804,6.0729,23.92,31,78,6.17,DZ,1697850518
93,amungan,15.3652,119.9582,28.06,75,100,0.9,PH,1697850518
94,codrington,-38.2667,141.9667,16.63,56,93,8.01,AU,1697850519
95,wailua homesteads,22.0669,-159.378,28.24,79,40,8.75,US,1697850519
96,haiku-pauwela,20.9219,-156.3051,28.01,66,20,7.2,US,1697850519
97,san rafael,-34.6177,-68.3301,24.26,34,83,2.67,AR,1697850519
98,selfoss,63.9331,-20.9971,6.14,95,100,2.08,IS,1697850519
99,harlingen,26.1906,-97.6961,27.25,69,0,3.09,US,1697850519
100,pangody,65.85,74.4859,-1.56,71,100,10.55,RU,1697850520
101,makurazaki,31.2667,130.3167,17.26,57,72,8.79,JP,1697850520
102,petropavlovsk-kamchatsky,53.0452,158.6483,5.33,100,100,1.0,RU,1697850520
103,port hedland,-20.3167,118.5667,35.03,20,0,4.12,AU,1697850520
104,herne,51.55,7.2167,13.96,91,98,1.79,DE,1697850520
105,mount gambier,-37.8333,140.7667,14.56,69,17,7.45,AU,1697850521
106,ust-nera,64.5667,143.2,-11.5,87,20,1.43,RU,1697850521
107,barakani,-12.1356,44.4317,25.63,82,23,2.37,KM,1697850521
108,turkmenbasy,40.0222,52.9552,14.4,65,6,4.18,TM,1697850521
109,shache,38.4167,77.2406,12.06,20,11,1.73,CN,1697850521
110,klichaw,53.4928,29.3352,3.89,92,100,6.39,BY,1697850521
111,chake chake,-5.2459,39.7666,24.29,87,6,3.2,TZ,1697850522
112,kismayo,-0.3582,42.5454,26.0,84,84,5.95,SO,1697850522
113,altai,46.3722,96.2583,1.89,39,0,1.31,MN,1697850523
114,college,64.8569,-147.8028,-3.64,73,75,6.69,US,1697850523
115,tabina,7.4669,123.4081,28.54,75,9,1.26,PH,1697850523
116,severo-yeniseyskiy,60.3725,93.0408,-0.12,85,100,3.19,RU,1697850524
117,amga,60.8953,131.9608,-9.62,81,98,0.87,RU,1697850524
118,khandyga,62.6667,135.6,-8.95,88,100,0.62,RU,1697850524
119,san patricio,28.017,-97.5169,27.52,54,6,3.82,US,1697850524
120,solnechnyy,50.7214,136.6319,0.19,65,84,1.83,RU,1697850524
121,damghan,36.1683,54.348,13.13,55,0,0.32,IR,1697850524
122,nadym,65.5333,72.5167,-1.06,73,100,11.65,RU,1697850524
123,cabedelo,-6.9811,-34.8339,26.37,80,67,6.31,BR,1697850525
124,billiri,9.8647,11.2253,24.54,55,13,1.23,NG,1697850525
125,kone,-21.0595,164.8658,24.76,62,88,2.81,NC,1697850525
126,east london,-33.0153,27.9116,19.64,94,100,6.12,ZA,1697850525
127,grantsville,40.5999,-112.4644,20.2,56,0,1.79,US,1697850526
128,beitbridge,-22.2167,30.0,21.86,43,0,2.04,ZW,1697850526
129,rosso,16.4986,-15.8153,27.84,50,72,8.56,SN,1697850526
130,puerto ayora,-0.7393,-90.3518,24.19,94,21,3.13,EC,1697850526
131,kerikeri,-35.2268,173.9474,21.62,79,86,2.24,NZ,1697850527
132,kaoma,-14.7833,24.8,19.43,80,100,2.04,ZM,1697850527
133,enewetak,11.3474,162.3373,28.81,72,100,5.34,MH,1697850527
134,vila velha,-20.3297,-40.2925,20.97,88,75,1.03,BR,1697850527
135,bamboo flat,11.7,92.7167,26.05,94,40,0.51,IN,1697850528
136,igarka,67.4667,86.5833,-0.17,88,99,7.89,RU,1697850528
137,punta arenas,-53.15,-70.9167,5.06,65,40,11.32,CL,1697850528
138,troitsk,54.0979,61.5773,1.68,72,77,2.68,RU,1697850528
139,santa elena de uairen,4.6167,-61.1333,21.16,87,95,1.48,VE,1697850528
140,siwa oasis,29.2041,25.5195,22.99,32,0,2.25,EG,1697850528
141,hemsby,52.6971,1.6918,12.21,99,14,4.87,GB,1697850529
142,bauru,-22.3147,-49.0606,21.02,81,26,2.24,BR,1697850529
143,la palma,33.8464,-118.0467,34.41,49,0,4.63,US,1697850529
144,juba,4.8517,31.5825,21.02,93,93,0.68,SS,1697850529
145,nyurba,63.2842,118.3319,-1.58,83,14,5.53,RU,1697850529
146,hithadhoo,-0.6,73.0833,27.36,77,39,5.78,MV,1697850529
147,newcastle west,52.4492,-9.0611,8.62,96,100,3.78,IE,1697850310
148,antsiranana,-12.2787,49.2917,21.25,90,10,2.88,MG,1697850529
149,port lincoln,-34.7333,135.8667,14.98,49,6,9.4,AU,1697850530
150,carnarvon,-24.8667,113.6333,26.0,40,100,5.06,AU,1697850530
151,horta,38.5333,-28.6333,17.23,84,100,9.39,PT,1697850530
152,molochnoye,59.2917,39.6787,-3.34,90,7,2.34,RU,1697850531
153,hilo,19.7297,-155.09,28.47,76,20,4.12,US,1697850531
154,mu'minobod,38.1085,70.0285,12.35,36,100,2.98,TJ,1697850531
155,uturoa,-16.7333,-151.4333,25.67,84,41,7.25,PF,1697850532
156,hermanus,-34.4187,19.2345,15.7,91,100,9.61,ZA,1697850533
157,luderitz,-26.6481,15.1594,14.61,84,0,3.45,NA,1697850533
158,vorgashor,67.5833,63.95,-1.12,95,100,12.95,RU,1697850533
159,eyl,7.9803,49.8164,26.96,78,12,1.1,SO,1697850533
160,taitung city,22.7583,121.1444,26.15,78,75,4.63,TW,1697850533
161,sodra sandby,56.5667,16.6167,5.92,78,100,14.98,SE,1697850534
162,arno,60.1167,18.6333,3.21,70,77,9.04,SE,1697850534
163,sur,22.5667,59.5289,26.7,61,0,4.12,OM,1697850534
164,bokani,9.4333,5.2,25.21,73,100,0.93,NG,1697850534
165,upata,8.0086,-62.3989,23.0,97,100,2.12,VE,1697850534
166,isangel,-19.55,169.2667,26.06,73,75,3.09,VU,1697850534
167,guerrero negro,27.9769,-114.0611,22.92,76,0,6.88,MX,1697850534
168,miyako,39.6367,141.9525,13.76,50,30,1.49,JP,1697850534
169,hamilton,39.1834,-84.5333,12.8,85,100,4.47,US,1697849928
170,katsuura,35.1333,140.3,19.01,75,77,8.53,JP,1697850535
171,lompoc,34.6391,-120.4579,22.08,85,20,4.47,US,1697850535
172,crane,31.3974,-102.3501,25.34,21,0,5.19,US,1697850280
173,lihue,21.9789,-159.3672,28.58,79,40,8.75,US,1697850535
174,susuman,62.7833,148.1667,-12.32,89,73,1.31,RU,1697850536
175,pangkalpinang,-2.1333,106.1333,27.91,73,100,2.03,ID,1697850537
176,onguday,50.75,86.15,3.45,59,74,1.89,RU,1697850537
177,fale old settlement,-9.3852,-171.2468,28.63,74,30,3.36,TK,1697850537
178,callao,-12.0667,-77.15,20.95,83,100,7.2,PE,1697850538
179,rio grande,-32.035,-52.0986,17.19,83,0,6.07,BR,1697850538
180,changzhi,35.2089,111.7386,16.05,40,54,0.53,CN,1697850539
181,san rafael del yuma,18.4299,-68.6739,27.76,86,0,2.1,DO,1697850539
182,meadow lakes,61.6247,-149.6011,1.17,50,0,2.57,US,1697850540
183,ambon,-3.6954,128.1814,29.08,79,20,1.54,ID,1697850540
184,chibougamau,49.9168,-74.3659,9.79,100,100,2.06,CA,1697850402
185,tolanaro,-25.0319,46.9987,20.49,71,78,3.66,MG,1697850542
186,salekhard,66.53,66.6019,0.57,78,100,11.69,RU,1697850543
187,darwin,-12.4611,130.8418,33.27,58,20,3.6,AU,1697850544
188,porto seguro,-16.4497,-39.0647,24.29,88,75,2.06,BR,1697850544
189,bam,29.106,58.357,21.64,33,0,1.51,IR,1697850545
190,yangiobod,41.1192,70.0941,12.0,50,95,1.94,UZ,1697850545
191,iqaluit,63.7506,-68.5145,-4.15,79,100,5.66,CA,1697850545
192,kodiak,57.79,-152.4072,4.73,48,100,4.12,US,1697850546
193,summerlin south,36.1027,-115.3811,29.37,18,0,0.34,US,1697850470
194,stanley,54.868,-1.6985,7.62,91,75,10.29,GB,1697850548
195,vila do maio,15.1333,-23.2167,26.44,77,41,6.45,CV,1697850548
196,yellowknife,62.456,-114.3525,1.34,80,75,4.12,CA,1697850313
197,sayyan,15.1718,44.3244,12.83,44,4,2.07,YE,1697850548
198,atafu village,-8.5421,-172.5159,28.74,72,100,3.29,TK,1697850549
199,nemuro,43.3236,145.575,9.15,70,75,6.34,JP,1697850549
200,sarai,53.7458,41.0213,4.61,96,100,5.65,RU,1697850549
201,baotou,40.6522,109.8222,9.07,27,0,0.9,CN,1697850549
202,san fernando de apure,7.8878,-67.4724,24.2,96,91,1.94,VE,1697850549
203,mana,5.6592,-53.7767,27.3,84,42,5.73,GF,1697850549
204,tvoroyri,61.5556,-6.8111,7.9,60,48,10.39,FO,1697850549
205,mangai,-4.05,19.5333,19.72,99,100,0.84,CD,1697850550
206,yaren,-0.5472,166.916,28.07,77,100,7.98,NR,1697850550
207,chekmagush,55.1319,54.6556,3.12,82,100,1.48,RU,1697850550
208,ciudad lazaro cardenas,17.9583,-102.2,26.56,77,100,0.89,MX,1697850551
209,vrontados,38.4089,26.1328,20.01,84,2,5.32,GR,1697850551
210,tsiombe,-25.3,45.4833,19.78,69,17,4.33,MG,1697850551
211,ulladulla,-35.35,150.4667,30.43,53,100,6.62,AU,1697850553
212,el granada,37.5027,-122.4694,21.05,78,100,5.66,US,1697850553
213,merizo village,13.2658,144.6691,32.31,83,13,4.82,GU,1697850554
214,constantia,44.1833,28.65,18.38,53,100,3.96,RO,1697850554
215,diplo,24.4667,69.584,25.64,65,0,3.09,PK,1697850554
216,rawson,-43.3002,-65.1023,11.16,82,40,4.63,AR,1697850554
217,brooks,50.5834,-111.8851,9.46,49,100,3.24,CA,1697850554
218,tura,25.5198,90.2201,20.13,90,0,1.57,IN,1697850555
219,loukhi,66.0764,33.0381,-1.89,55,24,5.1,RU,1697850555
220,kununurra,-15.7667,128.7333,29.99,54,0,5.66,AU,1697850419
221,aguas belas,-9.1114,-37.1231,22.3,83,10,3.05,BR,1697850555
222,mahibadhoo,3.7833,72.9667,26.99,77,96,6.05,MV,1697850556
223,beaconsfield,45.4334,-73.8659,14.48,91,14,0.89,CA,1697850556
224,nova sintra,14.8667,-24.7167,23.9,78,21,8.9,CV,1697850557
225,baiti,13.745,-14.7482,26.77,71,12,4.14,SN,1697850558
226,iskateley,67.6803,53.1512,0.84,83,99,9.92,RU,1697850558
227,alaghsas,17.0187,8.0168,27.14,16,0,3.58,NE,1697850559
228,nema,57.5067,50.5011,1.34,81,100,2.62,RU,1697850559
229,bardai,11.65,7.2333,23.4,29,77,1.89,NG,1697850559
230,arraial do cabo,-22.9661,-42.0278,21.0,76,100,3.58,BR,1697850495
231,hobyo,5.3505,48.5268,27.72,72,100,2.25,SO,1697850560
232,udachny,66.4167,112.4,-3.08,85,37,9.06,RU,1697850560
233,majene,-3.5403,118.9707,29.03,66,45,1.88,ID,1697850562
234,west island,-12.1568,96.8225,26.99,78,40,5.14,CC,1697850564
235,pemangkat,1.1667,108.9667,27.47,77,19,1.34,ID,1697850564
236,hawick,55.4227,-2.7867,7.11,97,100,8.57,GB,1697850564
237,okhotsk,59.3833,143.3,1.02,80,100,5.35,RU,1697850565
238,basco,20.4487,121.9702,27.65,75,99,7.9,PH,1697850565
239,patacamaya,-17.2333,-67.9167,8.03,79,52,4.67,BO,1697850566
240,fortuna,40.5982,-124.1573,16.63,93,0,4.12,US,1697850567
241,cill airne,52.05,-9.5167,10.06,96,100,2.36,IE,1697850301
242,san pedro,14.35,121.0167,26.57,95,75,0.89,PH,1697850569
243,rongelap,11.1635,166.8941,28.85,73,80,7.18,MH,1697850570
244,kavaratti,10.5669,72.642,27.95,72,38,0.5,IN,1697850570
245,praia da vitoria,38.7333,-27.0667,17.09,86,65,14.08,PT,1697850570
246,aoulef,26.9667,1.0833,27.19,19,10,4.23,DZ,1697850570
247,kamthi,21.2333,79.2,21.19,64,0,1.93,IN,1697850571
248,tannum sands,-23.9504,151.3693,29.3,50,40,4.12,AU,1697850525
249,remire-montjoly,4.9167,-52.2667,28.02,83,0,2.57,GF,1697850574
250,acapulco de juarez,16.8634,-99.8901,26.9,69,40,3.09,MX,1697850489
251,san jose del guaviare,2.5729,-72.6459,23.74,91,100,1.36,CO,1697850576
252,fort mcmurray,56.7268,-111.381,8.08,50,0,2.48,CA,1697850576
253,muisne,0.6,-80.0333,25.28,80,100,3.96,EC,1697850578
254,labrador city,52.9463,-66.9114,7.95,93,100,4.12,CA,1697850578
255,mili,6.0815,171.735,27.93,80,100,6.83,MH,1697850578
256,talnakh,69.4865,88.3972,-0.44,88,100,5.69,RU,1697850579
257,port elizabeth,-33.918,25.5701,17.95,98,100,1.79,ZA,1697850579
258,swan hill,-35.3378,143.5544,22.25,37,99,6.64,AU,1697850579
259,scottburgh,-30.2867,30.7532,20.66,92,24,7.87,ZA,1697850579
260,dunay,42.8803,132.3375,4.25,41,38,9.54,RU,1697850580
261,broken hill,-31.95,141.4333,21.17,36,51,6.69,AU,1697850580
262,tazacorte,28.629,-17.9293,21.54,78,0,2.57,ES,1697850580
263,zheleznodorozhnyy,55.7503,38.0042,3.29,91,100,4.64,RU,1697850580
264,puerto armuelles,8.2833,-82.8667,27.27,72,100,2.24,PA,1697850580
265,kapa'a,22.0752,-159.319,28.99,79,40,8.75,US,1697850581
266,st. john's,47.5649,-52.7093,11.65,92,40,6.69,CA,1697850398
267,albina,5.5,-54.05,26.46,81,8,2.59,SR,1697850581
268,kaffrine,14.1059,-15.5508,26.44,60,22,2.95,SN,1697850581
269,taltal,-25.4,-70.4833,16.27,77,0,4.99,CL,1697850020
270,alice springs,-23.7,133.8833,26.75,24,0,5.14,AU,1697850581
271,hotan,37.0997,79.9269,8.95,17,4,1.63,CN,1697850581
272,margate,51.3813,1.3862,14.61,95,60,1.34,GB,1697850582
273,kamuli,0.9472,33.1197,17.74,99,100,0.87,UG,1697850582
274,kingston,17.997,-76.7936,30.53,82,75,1.54,JM,1697850577
275,mar del plata,-38.0023,-57.5575,14.01,90,0,4.12,AR,1697850360
276,flying fish cove,-10.4217,105.6791,26.82,83,75,4.63,CX,1697850584
277,muravlenko,63.7898,74.523,-2.06,84,18,6.36,RU,1697850325
278,mount pearl,47.5166,-52.7813,11.19,92,1,0.45,CA,1697850585
279,inirida,3.8653,-67.9239,23.7,97,100,0.63,CO,1697850585
280,qamdo,31.1667,97.2333,-0.7,48,40,2.29,CN,1697850585
281,selkirk,50.1436,-96.8845,13.37,88,72,1.34,CA,1697850585
282,perry,37.2506,-83.1999,13.1,92,25,3.44,US,1697850586
283,ixtapa,20.7,-105.2,28.57,79,100,1.54,MX,1697850587
284,yumbe,3.4651,31.2469,18.17,94,87,1.17,UG,1697850587
285,changji,44.0167,87.3167,8.44,49,0,2.0,CN,1697850587
286,pico truncado,-46.7949,-67.9573,8.39,59,55,7.02,AR,1697850587
287,mugia,43.1041,-9.2179,13.28,67,41,7.36,ES,1697850588
288,ar rutbah,33.0381,40.2848,18.82,44,0,2.07,IQ,1697850439
289,chaykovskiy,56.7686,54.1148,1.42,95,60,0.81,RU,1697850557
290,arawa,-6.2132,155.5367,30.19,70,99,1.64,PG,1697850588
291,bumpe,7.8919,-11.9025,23.79,99,100,0.65,SL,1697850588
292,tan-tan,28.438,-11.1032,19.74,78,20,3.84,MA,1697850588
293,kruisfontein,-34.0033,24.7314,16.5,97,100,5.64,ZA,1697850589
294,hami,42.8,93.45,10.59,30,100,1.38,CN,1697850589
295,lys'va,58.1086,57.8053,1.59,99,100,1.67,RU,1697850589
296,orkney,-26.9802,26.6727,20.48,34,0,4.96,ZA,1697850589
297,chardara,41.2547,67.9692,17.8,50,100,1.53,KZ,1697850589
298,upington,-28.4478,21.2561,19.28,40,99,4.66,ZA,1697850590
299,harper,4.375,-7.7169,24.75,91,70,2.95,LR,1697850590
300,matoury,4.8483,-52.3317,27.98,83,0,2.57,GF,1697850590
301,poso,-1.3959,120.7524,29.57,57,99,0.54,ID,1697850590
302,al hudaydah,14.7978,42.9545,29.57,73,52,3.86,YE,1697850590
303,bukama,-9.2,25.85,20.55,95,100,1.85,CD,1697850590
304,fomboni,-12.28,43.7425,26.76,76,5,3.28,KM,1697850590
305,nadi,-17.8,177.4167,30.0,54,40,6.17,FJ,1697850591
306,tamanrasset,22.785,5.5228,22.69,20,0,1.17,DZ,1697850591
307,tanout,14.9709,8.8879,28.5,15,94,4.2,NE,1697850591
308,neiafu,-18.65,-173.9833,27.38,65,20,5.66,TO,1697850591
309,cesky brod,50.0742,14.8608,14.32,91,100,2.34,CZ,1697850592
310,ji'an,27.1172,114.9793,17.06,68,92,3.25,CN,1697850592
311,kavieng,-2.5744,150.7967,26.16,85,100,2.61,PG,1697850592
312,mikun',62.3547,50.0771,-2.38,87,63,3.66,RU,1697850592
313,paulden,34.8856,-112.4682,26.1,15,0,0.89,US,1697850592
314,alofi,-19.0595,-169.9187,23.75,78,31,9.64,NU,1697850593
315,dudinka,69.4058,86.1778,-0.21,85,100,8.9,RU,1697850593
316,tadine,-21.55,167.8833,23.31,62,37,4.61,NC,1697850593
317,lata,40.1629,-8.3327,11.71,89,35,1.42,PT,1697850593
318,tarakan,3.3,117.6333,26.79,81,39,1.41,ID,1697850593
319,pisco,-13.7,-76.2167,19.03,88,100,6.69,PE,1697850593
320,nabire,-3.3667,135.4833,30.3,63,36,1.28,ID,1697850594
321,camacupa,-12.0167,17.4833,17.89,75,100,1.45,AO,1697850594
322,mercedes,-34.6515,-59.4307,18.77,68,8,4.62,AR,1697850594
323,portland,45.5234,-122.6762,19.8,83,20,4.12,US,1697850337
324,sandnessjoen,66.0217,12.6316,-9.71,46,2,4.09,NO,1697850594
325,pathein,16.7833,94.7333,25.81,89,4,2.53,MM,1697850594
326,cabo san lucas,22.8909,-109.9124,23.75,84,100,3.58,MX,1697850014
327,darnah,32.767,22.6367,23.45,57,3,4.33,LY,1697850595
328,arkhangel'sk,64.5401,40.5433,0.33,68,100,5.44,RU,1697850595
329,fort st. john,56.2499,-120.8529,6.94,52,0,3.29,CA,1697850463
330,zabol,32.25,67.25,12.23,44,1,3.74,AF,1697850595
331,trail,49.0998,-117.7022,14.27,73,100,0.29,CA,1697850596
332,ust-tsilma,65.441,52.1498,-0.25,91,100,7.46,RU,1697850596
333,port augusta,-32.5,137.7667,19.01,37,100,8.35,AU,1697850596
334,port alfred,-33.5906,26.891,17.32,97,100,6.94,ZA,1697850596
335,kibaha,-6.7667,38.9167,21.93,94,63,0.98,TZ,1697850560
336,pampa del indio,-26.0647,-59.919,23.27,84,4,2.09,AR,1697850596
337,palmer,42.1584,-72.3287,16.25,85,100,2.57,US,1697850597
338,xinqing,48.2333,129.5,-0.67,38,0,4.26,CN,1697850598
339,natal,-5.795,-35.2094,26.36,78,40,4.63,BR,1697850598
340,koror,7.3398,134.4733,30.18,70,75,1.54,PW,1697850598
341,sisimiut,66.9395,-53.6735,-4.62,68,1,2.5,GL,1697850598
342,pimentel,-6.8367,-79.9342,20.16,88,75,5.66,PE,1697850598
343,sabancuy,18.9667,-91.1833,25.5,71,96,4.0,MX,1697850599
344,puerto deseado,-47.7503,-65.8938,8.02,58,100,6.01,AR,1697850599
345,geraldton,-28.7667,114.6,23.23,49,100,2.57,AU,1697850599
346,dingwall,57.5953,-4.4272,7.26,86,100,10.01,GB,1697850599
347,egilsstadir,65.2653,-14.3948,4.18,96,86,2.35,IS,1697850600
348,tukrah,32.5341,20.5791,25.34,33,0,5.9,LY,1697850600
349,thaba-tseka,-29.522,28.6084,14.05,47,9,3.0,LS,1697850600
350,greenville,35.6127,-77.3663,15.02,96,100,1.79,US,1697850380
351,palikir - national government center,6.9248,158.1611,30.47,74,75,3.6,FM,1697850601
352,saint-philippe,-21.3585,55.7679,22.77,82,44,2.22,RE,1697850601
353,chadron,42.8294,-102.9999,14.92,63,0,4.63,US,1697850604
354,fort wellington,6.4,-57.6,27.58,82,96,4.17,GY,1697850606
355,as sulayyil,20.4607,45.5779,23.14,31,0,2.19,SA,1697850606
356,viedma,-40.8135,-62.9967,15.03,68,100,6.89,AR,1697850364
357,lincoln,40.8,-96.667,21.76,49,0,3.69,US,1697850072
358,kyren,51.6828,102.1408,4.82,71,6,0.82,RU,1697850610
359,klyuchi,52.2667,79.1667,10.11,53,100,5.58,RU,1697850611
360,alvaraes,-3.2208,-64.8042,27.93,53,100,1.37,BR,1697850611
361,ad dawadimi,24.5077,44.3924,20.64,29,0,5.73,SA,1697850612
362,cullowhee,35.3137,-83.1765,12.78,73,100,4.12,US,1697850612
363,brisas de zicatela,15.8369,-97.0419,29.29,58,75,0.0,MX,1697850613
364,axim,4.8699,-2.2405,25.54,88,64,3.26,GH,1697850613
365,coquimbo,-29.9533,-71.3436,13.98,84,39,1.49,CL,1697850614
366,pinos,22.3,-101.5667,14.35,42,86,5.36,MX,1697850614
367,byron bay,-28.65,153.6167,23.42,55,3,4.43,AU,1697850412
368,ar rumaythah,31.5263,45.2025,24.7,36,0,4.53,IQ,1697850614
369,minusinsk,53.7103,91.6875,2.01,86,60,1.21,RU,1697850614
370,galliano,29.4422,-90.2992,25.0,69,0,3.6,US,1697850615
371,sao vicente,-23.9631,-46.3919,21.26,26,100,4.19,BR,1697850615
372,new plymouth,-39.0667,174.0833,16.29,79,52,4.26,NZ,1697850443
373,bac kan,22.1333,105.8333,22.5,59,40,1.59,VN,1697850615
374,sola,-13.8833,167.55,26.55,78,100,4.63,VU,1697850615
375,twon-brass,4.3151,6.2418,26.9,83,24,4.27,NG,1697850616
376,kupang,-10.1667,123.5833,30.32,58,20,3.6,ID,1697850617
377,katutura,-22.521,17.0557,19.39,21,0,2.56,NA,1697850617
378,zuwarah,32.9312,12.082,29.14,28,100,8.6,LY,1697850618
379,bel ombre,-4.6167,55.4167,27.11,75,94,1.15,SC,1697850619
380,hinatuan,8.3722,126.3342,29.77,68,14,1.46,PH,1697850619
381,general conesa,-40.1,-64.4333,20.13,39,86,8.17,AR,1697850620
382,oqtosh,39.9214,65.9253,14.92,75,100,7.78,UZ,1697850620
383,iskushuban,10.2837,50.23,24.22,83,5,3.46,SO,1697850620
384,invercargill,-46.4,168.35,11.68,68,14,8.49,NZ,1697850581
385,turpan,42.9333,89.1667,14.01,29,43,0.65,CN,1697850620
386,atlantic city,39.3643,-74.4229,17.23,96,75,1.79,US,1697850621
387,huarmey,-10.0681,-78.1522,20.63,87,100,4.48,PE,1697850622
388,barre,44.197,-72.5021,14.39,82,100,0.45,US,1697850449
389,mashava,-20.0367,30.4823,18.0,53,0,1.82,ZW,1697850624
390,kaspiyskiy,45.3929,47.3707,12.0,85,83,5.25,RU,1697850624
391,kirensk,57.7853,108.1119,2.03,91,80,1.74,RU,1697850551
392,buka,40.8108,69.1986,15.83,57,100,0.92,UZ,1697850625
393,noosa heads,-26.3833,153.15,26.85,63,0,2.84,AU,1697850625
394,gunnison,38.7,-107.0673,11.47,23,0,2.21,US,1697850625
395,porto novo,6.4965,2.6036,25.58,88,16,2.15,BJ,1697850625
396,ingeniero jacobacci,-41.3427,-69.5448,16.74,35,100,3.82,AR,1697850625
397,vernon,50.2581,-119.2691,16.2,48,100,1.03,CA,1697850341
398,murashi,59.3999,48.9615,-2.6,92,80,1.6,RU,1697850627
399,port moresby,-9.4431,147.1797,26.98,76,100,3.97,PG,1697850628
400,inverness,57.4791,-4.224,7.21,86,40,6.69,GB,1697850452
401,an nimas,19.1455,42.1201,14.58,28,0,2.9,SA,1697850629
402,thinadhoo,0.5333,72.9333,27.03,79,85,5.35,MV,1697850629
403,lazaro cardenas,17.9583,-102.2,26.56,77,100,0.89,MX,1697850513
404,la ronge,55.1001,-105.2842,9.36,62,10,5.41,CA,1697850630
405,yuzhno-kurilsk,44.0306,145.8556,8.18,77,100,5.39,RU,1697850630
406,horasan,40.0458,42.1728,7.37,71,77,0.59,TR,1697850630
407,ortega,3.9361,-75.2217,27.92,52,100,1.16,CO,1697850630
408,la passe,45.5549,-0.8967,14.43,69,100,10.18,FR,1697850630
409,likiep,9.8251,169.3107,28.31,74,100,6.01,MH,1697850631
410,tongliao,43.6125,122.2653,7.65,26,0,3.89,CN,1697850632
411,zhangjiakou shi xuanhua qu,40.6103,115.0447,9.76,32,0,1.33,CN,1697850632
412,petropavlovskaya,45.0819,40.4512,11.58,45,49,2.42,RU,1697850632
413,troitsko-pechorsk,62.7084,56.1964,-1.55,73,92,4.72,RU,1697850632
414,muroto-misakicho,33.2833,134.15,18.0,49,0,6.76,JP,1697850633
415,bodaybo,57.8506,114.1933,2.14,83,30,2.14,RU,1697850593
416,manokwari,-0.8667,134.0833,28.01,71,99,0.43,ID,1697850633
417,mabini,15.6,120.9833,25.89,88,100,1.81,PH,1697850633
418,neftegorsk,52.802,51.166,6.66,89,100,4.45,RU,1697850634
419,woolgoolga,-30.1106,153.2007,28.36,64,0,7.1,AU,1697850634
420,valdivia,-39.8142,-73.2459,11.26,85,95,1.5,CL,1697850635
421,touros,-5.1989,-35.4608,25.91,80,73,7.0,BR,1697850372
422,paredon,16.0333,-93.8667,27.4,63,85,6.01,MX,1697850635
423,belyy yar,53.6039,91.3903,1.94,100,100,0.0,RU,1697850635
424,daru,-9.0763,143.2092,26.44,72,100,4.58,PG,1697850636
425,usogorsk,63.4106,48.6872,-1.37,82,100,5.07,RU,1697850637
426,alta sierra,35.7291,-118.5495,18.1,32,0,2.43,US,1697850637
427,brookings,44.3114,-96.7984,17.32,52,0,5.14,US,1697850439
428,inarajan village,13.2736,144.7484,32.54,83,18,5.2,GU,1697850638
429,bubaque,11.2833,-15.8333,28.49,79,25,5.34,GW,1697850638
430,nizhneangarsk,55.7833,109.55,2.49,78,32,2.18,RU,1697850638
431,trincomalee,8.5711,81.2335,25.07,84,100,2.71,LK,1697850638
432,christchurch,-43.5333,172.6333,15.85,76,100,3.09,NZ,1697850365
433,battenberg,51.0167,8.65,12.56,98,100,2.22,DE,1697850639
434,ta`u,-14.2336,-169.5144,26.47,83,56,7.66,AS,1697850639
435,fort bragg,35.139,-79.006,12.85,95,100,3.09,US,1697850640
436,lido di ostia,41.7321,12.2765,21.95,62,100,3.09,IT,1697850640
437,sao joao da barra,-21.6403,-41.0511,21.08,79,100,1.92,BR,1697850641
438,murun-kuren,49.6342,100.1625,3.25,59,5,0.51,MN,1697850641
439,jacksonville,30.3322,-81.6556,23.37,75,40,5.14,US,1697850085
440,imbituba,-28.24,-48.6703,18.34,87,100,4.11,BR,1697850643
441,kudymkar,59.0173,54.656,-2.4,93,12,1.61,RU,1697850644
442,kindu,-2.95,25.95,21.11,98,95,0.58,CD,1697850644
443,aykhal,66.0,111.5,-1.52,81,100,10.73,RU,1697850436
444,mathba,22.2855,89.9629,22.3,84,0,2.04,BD,1697850644
445,cleveland,41.4995,-81.6954,13.27,93,100,4.12,US,1697850608
446,mirny,62.5353,113.9611,-0.98,86,100,4.02,RU,1697850644
447,mirnyy,62.5353,113.9611,-0.98,86,100,4.02,RU,1697850566
448,sao paulo de olivenca,-3.3783,-68.8725,23.31,95,48,0.73,BR,1697850646
449,rengasdengklok,-6.1592,107.2981,29.07,62,51,2.29,ID,1697850646
450,kourou,5.1552,-52.6478,28.03,85,6,4.3,GF,1697850647
451,lerwick,60.1545,-1.1494,8.0,57,100,12.32,GB,1697850647
452,vadso,70.0744,29.7487,4.09,81,75,7.72,NO,1697850647
453,strugi-krasnyye,58.2675,29.1114,-1.89,87,9,3.74,RU,1697850648
454,wanxian,30.8039,108.3897,17.43,73,98,1.66,CN,1697850648
455,oeiras,-7.0253,-42.1311,27.69,29,8,2.7,BR,1697850352
456,cavelossim,15.1726,73.9419,25.99,86,22,2.08,IN,1697850649
457,florence,43.7667,11.25,18.47,90,40,2.06,IT,1697850650
458,pangai,-19.8,-174.35,24.11,76,38,6.12,TO,1697850439
459,sidney,-33.8679,151.2073,29.23,65,0,7.2,AU,1697850576
460,dauphin,51.1494,-100.0502,14.08,47,0,4.63,CA,1697850353
461,nuuk,64.1835,-51.7216,-0.66,80,75,3.09,GL,1697850650
462,mossel bay,-34.1831,22.146,17.96,92,100,7.8,ZA,1697850651
463,mariental,-24.6333,17.9667,20.57,17,0,2.31,NA,1697850653
464,ittiri,40.5929,8.5684,17.5,77,77,4.32,IT,1697850653
465,tofol,5.3248,163.0078,30.88,70,75,3.09,FM,1697850653
466,ola,59.5833,151.2833,2.86,76,100,9.31,RU,1697850654
467,iwanai,42.9744,140.5089,8.77,42,5,1.9,JP,1697850654
468,taulaga,-11.0553,-171.0883,28.37,74,20,2.86,AS,1697850654
469,rehoboth,-23.3167,17.0833,19.04,14,0,2.45,NA,1697850654
470,la gi,10.6667,107.7833,27.48,82,93,2.49,VN,1697850655
471,aripuana,-9.1667,-60.6333,28.78,34,6,0.48,BR,1697850655
472,nagqu,31.5,92.0,-4.59,71,87,0.56,CN,1697850656
473,kurchatov,51.6601,35.6521,8.56,95,100,4.61,RU,1697850656
474,yanacancha,-10.2411,-76.6456,6.81,83,94,2.43,PE,1697850656
475,reggane,26.7158,0.1714,26.88,18,91,3.96,DZ,1697850657
476,hasaki,35.7333,140.8333,19.22,76,100,10.14,JP,1697850560
477,new norfolk,-42.7826,147.0587,13.84,96,100,2.38,AU,1697850390
478,sinabang,2.4803,96.3801,25.63,85,100,1.46,ID,1697850658
479,sturgis,41.7992,-85.4192,10.07,89,0,4.63,US,1697850659
480,grand falls-windsor,48.9332,-55.6649,10.28,86,100,3.22,CA,1697850659
481,el rosario,24.2556,-107.1828,26.86,90,100,1.63,MX,1697850659
482,yung shue wan,22.2333,114.1167,23.71,79,95,0.45,HK,1697850661
483,itapirapua,-15.8233,-50.6133,30.0,39,28,2.97,BR,1697850661
484,forster,-32.1667,152.5167,26.27,58,0,6.9,AU,1697850662
485,er regueb,34.8593,9.7865,21.95,61,99,6.87,TN,1697850662
486,salinera colan,-5.0333,-81.0667,20.97,82,89,5.52,PE,1697850663
487,salalah,17.0151,54.0924,26.05,61,0,1.03,OM,1697850663
488,tangalle,6.024,80.7911,24.09,86,96,1.19,LK,1697850664
489,farkhor,37.4922,69.4036,18.81,37,100,1.53,TJ,1697850664
490,leongatha,-38.4833,145.95,24.4,35,100,2.48,AU,1697850664
491,hirara,24.8,125.2833,24.15,78,75,8.23,JP,1697850664
492,bojnurd,37.4747,57.329,10.2,72,0,2.11,IR,1697850664
493,ardon,43.17,44.29,-0.45,44,34,1.97,RU,1697850664
494,gualeguay,-33.1416,-59.3097,21.93,64,88,3.99,AR,1697850381
495,bengkulu,-3.8004,102.2655,24.18,92,100,0.56,ID,1697850665
496,conception bay south,47.4999,-52.9981,11.52,93,5,5.3,CA,1697850665
497,tamandare,-8.7597,-35.1047,25.15,82,92,3.43,BR,1697850665
498,kiunga,-6.1219,141.2906,28.8,70,92,1.1,PG,1697850665
499,le pouliguen,47.2697,-2.4278,13.97,83,100,15.2,FR,1697850665
500,mweka,-4.85,21.5667,19.35,98,97,0.45,CD,1697850666
501,aberystwyth,52.4155,-4.0829,10.95,88,100,6.73,GB,1697850666
502,preston,53.7667,-2.7167,9.81,89,100,7.27,GB,1697850666
503,gorodoviki,46.1353,41.9656,11.52,49,33,3.99,RU,1697850666
504,alta,69.9689,23.2717,4.59,78,20,5.14,NO,1697850666
505,winnemucca,40.973,-117.7357,23.03,21,0,1.54,US,1697850667
506,oshakati,-17.7833,15.6833,22.74,24,2,4.68,NA,1697850667
507,quirinopolis,-18.4483,-50.4517,25.96,60,14,3.51,BR,1697850667
508,gadzhiyevo,69.2551,33.3362,2.75,85,100,11.81,RU,1697850667
509,lluta,-16.0147,-72.0142,11.73,74,100,0.88,PE,1697850667
510,martan-chu,43.0637,45.5622,2.94,53,8,2.28,RU,1697850668
511,carahue,-38.7,-73.1667,8.86,85,100,2.21,CL,1697850668
512,port macquarie,-31.4333,152.9167,26.61,55,0,7.15,AU,1697850620
513,kasongo-lunda,-6.4667,16.8167,20.6,98,36,0.54,CD,1697850668
514,gunjur,13.2019,-16.7339,27.04,94,0,0.0,GM,1697850669
515,sydney,-33.8679,151.2073,28.67,65,0,7.2,AU,1697850314
516,dalbandin,28.8947,64.4101,22.81,43,69,2.49,PK,1697850669
517,tabriz,38.08,46.2919,8.7,81,0,2.06,IR,1697850669
518,sirte,31.2089,16.5887,26.47,31,7,9.75,LY,1697850669
519,tyukhtet,56.5389,89.3011,2.63,76,99,3.65,RU,1697850670
520,sebastopol,44.6,33.5333,18.33,57,55,3.58,UA,1697850670
521,castillos,-34.1667,-53.8333,13.04,88,3,3.32,UY,1697850670
522,prey veng,11.4868,105.3253,27.3,83,100,2.43,KH,1697850671
523,dhidhdhoo,6.8833,73.1,28.02,70,18,2.06,MV,1697850631
524,weno,7.4515,151.8468,29.97,79,20,2.06,FM,1697850671
525,shakiso,5.75,38.9167,14.39,99,100,0.43,ET,1697850671
526,taunggyi,20.7833,97.0333,17.05,90,100,0.57,MM,1697850672
527,licata,37.1071,13.9461,24.61,67,100,5.76,IT,1697850673
528,arinos,-15.9169,-46.1056,25.12,69,69,1.73,BR,1697850673
529,fort william,56.8165,-5.1121,6.28,84,100,3.78,GB,1697850673
530,batang berjuntai,3.3833,101.4167,28.2,87,100,0.42,MY,1697850674
531,villa gesell,-37.2639,-56.973,12.84,86,70,6.43,AR,1697850473
532,revda,56.801,59.9303,-0.28,93,82,1.95,RU,1697850674
533,sao jose da coroa grande,-8.8978,-35.1478,25.21,82,81,3.62,BR,1697850674
534,canutama,-6.5339,-64.3831,30.26,40,100,1.42,BR,1697850675
535,plettenberg bay,-34.0527,23.3716,17.1,97,100,4.97,ZA,1697850675
536,port douglas,-16.4833,145.4667,25.02,65,84,3.05,AU,1697850675
537,tutoia,-2.7619,-42.2744,26.92,84,43,5.95,BR,1697850675
538,carboneras,37.0015,-1.9213,15.28,51,3,1.87,ES,1697850675
539,tevriz,57.509,72.4042,1.5,99,100,2.26,RU,1697850676
540,bonito,-21.1211,-56.4819,21.76,90,98,0.79,BR,1697850677
541,ostersund,63.1792,14.6357,-4.75,93,100,1.54,SE,1697850677
542,churapcha,62.0025,132.4325,-10.61,86,76,1.68,RU,1697850678
543,calau,51.75,13.9333,9.41,97,100,2.14,DE,1697850678
544,city of balikpapan,-1.242,116.8942,28.97,84,20,1.54,ID,1697850678
545,cotonou,6.3654,2.4183,26.47,85,11,3.88,BJ,1697850679
546,freetown,8.484,-13.2299,25.83,88,100,2.37,SL,1697850680
547,awjilah,29.1081,21.2869,23.19,28,0,4.24,LY,1697850683
548,fada,9.5667,8.3,21.23,89,100,0.98,NG,1697850683
549,sumbawa besar,-8.5,117.4333,32.51,34,83,2.42,ID,1697850684
550,dunedin,-45.8742,170.5036,15.45,54,46,4.02,NZ,1697850684
551,kalemie,-5.9475,29.1947,22.19,82,98,3.04,CD,1697850684
552,shetpe,44.1667,52.1167,7.94,69,100,3.58,KZ,1697850686
553,zhicheng,30.2956,111.5047,17.34,62,76,1.03,CN,1697850686
554,yanam,16.7333,82.2167,25.56,82,26,2.66,IN,1697850690
555,cascais,38.6979,-9.4215,15.59,87,83,4.47,PT,1697850691
556,gannan,47.9147,123.5031,4.25,29,7,2.6,CN,1697850693
557,kayangel,8.0823,134.7173,29.08,72,32,4.25,PW,1697850694
558,tonota,-21.4833,27.4833,19.47,41,0,2.81,BW,1697850696
559,hargeysa,9.56,44.065,19.24,89,40,3.49,SO,1697850696
560,westport,41.1415,-73.3579,16.98,92,100,4.63,US,1697850665
561,riberalta,-10.9833,-66.1,29.73,40,48,1.03,BO,1697850697
562,yamada,39.4667,141.95,14.13,53,25,1.21,JP,1697850546
